{
  "meta": {
    "uuid": "8f72c668-73b8-4f90-8447-c2b342a8ec98",
    "time": "91.145ms"
  },
  "page": 1,
  "page_size": 30,
  "total": 35,
  "cities": [
    {
      "id": "BHI",
      "country": {
        "id": "AR"
      },
      "name": "Bahia Blanca, Buenos Aires",
      "longitude": -62.2681,
      "latitude": -38.7117,
      "has_airport": true
    },
    {
      "id": "COR",
      "country": {
        "id": "AR"
      },
      "name": "Cordoba, Cordoba",
      "longitude": 64.182,
      "latitude": -31.3989,
      "has_airport": true
    },
    {
      "id": "NQN",
      "country": {
        "id": "AR"
      },
      "name": "Neuquen, Neuquen",
      "longitude": -68.0657,
      "latitude": -38.9493,
      "has_airport": true
    },
    {
      "id": "UAQ",
      "country": {
        "id": "AR"
      },
      "name": "San Juan, San Juan",
      "longitude": -68.5213,
      "latitude": -31.5273,
      "has_airport": true
    },
    {
      "id": "BRC",
      "country": {
        "id": "AR"
      },
      "name": "San Carlos de Bariloche, Rio Negro",
      "longitude": -71.3012,
      "latitude": -41.1493,
      "has_airport": true
    },
    {
      "id": "IGR",
      "country": {
        "id": "AR"
      },
      "name": "Puerto Iguazu, Misiones",
      "longitude": -54.4499,
      "latitude": -25.6667,
      "has_airport": true
    },
    {
      "id": "PSS",
      "country": {
        "id": "AR"
      },
      "name": "Posadas, Misiones",
      "longitude": -55.9008,
      "latitude": -27.3621,
      "has_airport": true
    },
    {
      "id": "REL",
      "country": {
        "id": "AR"
      },
      "name": "Trelew, Chubut",
      "longitude": -65.3074,
      "latitude": -43.2491,
      "has_airport": true
    },
    {
      "id": "FTE",
      "country": {
        "id": "AR"
      },
      "name": "El Calafate, Santa Cruz",
      "longitude": -72.2704,
      "latitude": -50.3402,
      "has_airport": true
    },
    {
      "id": "JUJ",
      "country": {
        "id": "AR"
      },
      "name": "San Salvador de Jujuy, Jujuy",
      "longitude": -65.3028,
      "latitude": -24.1904,
      "has_airport": true
    },
    {
      "id": "RGL",
      "country": {
        "id": "AR"
      },
      "name": "Rio Gallegos, Santa Cruz",
      "longitude": -69.2276,
      "latitude": -51.633,
      "has_airport": true
    },
    {
      "id": "TUC",
      "country": {
        "id": "AR"
      },
      "name": "San Miguel de Tucuman, Tucuman",
      "longitude": -65.2176,
      "latitude": -26.8083,
      "has_airport": true
    },
    {
      "id": "CRD",
      "country": {
        "id": "AR"
      },
      "name": "Comodoro Rivadavia, Chubut",
      "longitude": -67.5,
      "latitude": -45.8679,
      "has_airport": true
    },
    {
      "id": "MDZ",
      "country": {
        "id": "AR"
      },
      "name": "Mendoza, Mendoza",
      "longitude": -68.844,
      "latitude": -32.8902,
      "has_airport": true
    },
    {
      "id": "SLA",
      "country": {
        "id": "AR"
      },
      "name": "Salta, Salta",
      "longitude": -65.4121,
      "latitude": -24.7829,
      "has_airport": true
    },
    {
      "id": "USH",
      "country": {
        "id": "AR"
      },
      "name": "Ushuaia, Tierra del Fuego",
      "longitude": -68.2291,
      "latitude": -54.7917,
      "has_airport": true
    },
    {
      "id": "BUE",
      "country": {
        "id": "AR"
      },
      "name": "Buenos Aires, Ciudad de Buenos Aires",
      "longitude": -58.3819,
      "latitude": -34.6054,
      "has_airport": true
    },
    {
      "id": "ASU",
      "country": {
        "id": "PY"
      },
      "name": "Asuncion, Central, Paraguay",
      "longitude": -57.519,
      "latitude": -25.2399,
      "has_airport": true
    },
    {
      "id": "BCN",
      "country": {
        "id": "ES"
      },
      "name": "Barcelona, Espa&#241;a",
      "longitude": 2.1699,
      "latitude": 41.3879,
      "has_airport": true
    },
    {
      "id": "BOG",
      "country": {
        "id": "CO"
      },
      "name": "Bogota, Colombia",
      "longitude": -74.082,
      "latitude": 4.6098,
      "has_airport": true
    },
    {
      "id": "CUN",
      "country": {
        "id": "MX"
      },
      "name": "Cancun, Mexico",
      "longitude": -86.835,
      "latitude": 21.1478,
      "has_airport": true
    },
    {
      "id": "FLN",
      "country": {
        "id": "BR"
      },
      "name": "Florianopolis, Brasil",
      "longitude": -48.5496,
      "latitude": -27.597,
      "has_airport": true
    },
    {
      "id": "LAX",
      "country": {
        "id": "US"
      },
      "name": "Los Angeles, California, Estados Unidos",
      "longitude": -118.243,
      "latitude": 34.0522,
      "has_airport": true
    },
    {
      "id": "LIM",
      "country": {
        "id": "PE"
      },
      "name": "Lima, Lima, Peru",
      "longitude": -77.0464,
      "latitude": -12.0931,
      "has_airport": true
    },
    {
      "id": "LON",
      "country": {
        "id": "GB"
      },
      "name": "Londres, Inglaterra, Reino Unido",
      "longitude": -0.1145,
      "latitude": 51.5027,
      "has_airport": true
    },
    {
      "id": "MAD",
      "country": {
        "id": "ES"
      },
      "name": "Madrid, Comunidad de Madrid, Espa&#241;a",
      "longitude": -3.7032,
      "latitude": 40.4167,
      "has_airport": true
    },
    {
      "id": "MEX",
      "country": {
        "id": "MX"
      },
      "name": "Ciudad de Mexico, Mexico D.F., Mexico",
      "longitude": -99.1276,
      "latitude": 19.427,
      "has_airport": true
    },
    {
      "id": "MVD",
      "country": {
        "id": "UY"
      },
      "name": "Montevideo, Montevideo, Uruguay",
      "longitude": -56.0674,
      "latitude": -34.8941,
      "has_airport": true
    },
    {
      "id": "MIA",
      "country": {
        "id": "US"
      },
      "name": "Miami, Florida, Estados Unidos",
      "longitude": -80.1902,
      "latitude": 25.7743,
      "has_airport": true
    },
    {
      "id": "NYC",
      "country": {
        "id": "US"
      },
      "name": "Nueva York, New York, Estados Unidos",
      "longitude": -74.0183,
      "latitude": 40.7022,
      "has_airport": true
    }
  ]
}